data,stato,codice_regione,denominazione_regione,codice_provincia,denominazione_provincia,sigla_provincia,codice_istat,denominazione_comune,lat,long,totale_casi
2020-03-19 18:00:00,ITA,13,Abruzzo,66,L'Aquila,AQ,66001,Acciano,42.193084430363299,13.706398694462999,0
2020-03-19 18:00:00,ITA,13,Abruzzo,66,L'Aquila,AQ,66002,Aielli,42.075238673001650,13.581974400806223,0
2020-03-19 18:00:00,ITA,13,Abruzzo,66,L'Aquila,AQ,66003,Alfedena,41.715814026042345,14.009916010483986,0
2020-03-19 18:00:00,ITA,13,Abruzzo,66,L'Aquila,AQ,66004,Anversa degli Abruzzi,41.988244438272112,13.811630656902118,0
2020-03-19 18:00:00,ITA,13,Abruzzo,66,L'Aquila,AQ,66005,Ateleta,41.873188620866728,14.173528898115400,0
2020-03-19 18:00:00,ITA,13,Abruzzo,66,L'Aquila,AQ,66006,Avezzano,42.037217378758811,13.446324862663355,4
2020-03-19 18:00:00,ITA,13,Abruzzo,66,L'Aquila,AQ,66007,Balsorano,41.799602987051486,13.583729581898350,0
2020-03-19 18:00:00,ITA,13,Abruzzo,66,L'Aquila,AQ,66008,Barete,42.449290600148998,13.275258726572462,0
2020-03-19 18:00:00,ITA,13,Abruzzo,66,L'Aquila,AQ,66009,Barisciano,42.349295606367967,13.585109746114439,0
2020-03-19 18:00:00,ITA,13,Abruzzo,66,L'Aquila,AQ,66010,Barrea,41.767484387378104,13.977982667896647,0
2020-03-19 18:00:00,ITA,13,Abruzzo,66,L'Aquila,AQ,66011,Bisegna,41.914848173197775,13.774930162901066,0
2020-03-19 18:00:00,ITA,13,Abruzzo,66,L'Aquila,AQ,66012,Bugnara,42.016572333408000,13.853501644279227,0
2020-03-19 18:00:00,ITA,13,Abruzzo,66,L'Aquila,AQ,66013,Cagnano Amiterno,42.451698006475844,13.199407789620267,0
2020-03-19 18:00:00,ITA,13,Abruzzo,66,L'Aquila,AQ,66014,Calascio,42.363991528917140,13.691707356758196,0
2020-03-19 18:00:00,ITA,13,Abruzzo,66,L'Aquila,AQ,66015,Campo di Giove,41.998515874729613,14.065574098145762,0
2020-03-19 18:00:00,ITA,13,Abruzzo,66,L'Aquila,AQ,66016,Campotosto,42.548972860726550,13.361453011260048,0
2020-03-19 18:00:00,ITA,13,Abruzzo,66,L'Aquila,AQ,66017,Canistro,41.934261552020622,13.397544474085253,0
2020-03-19 18:00:00,ITA,13,Abruzzo,66,L'Aquila,AQ,66018,Cansano,41.984293248335781,14.026053209023296,0
2020-03-19 18:00:00,ITA,13,Abruzzo,66,L'Aquila,AQ,66019,Capestrano,42.272372576611545,13.792822204176044,0
2020-03-19 18:00:00,ITA,13,Abruzzo,66,L'Aquila,AQ,66020,Capistrello,41.975944798852389,13.376217805584384,0
2020-03-19 18:00:00,ITA,13,Abruzzo,66,L'Aquila,AQ,66021,Capitignano,42.523278845148802,13.305269306070837,0
2020-03-19 18:00:00,ITA,13,Abruzzo,66,L'Aquila,AQ,66022,Caporciano,42.244960647768139,13.671219823397642,0
2020-03-19 18:00:00,ITA,13,Abruzzo,66,L'Aquila,AQ,66023,Cappadocia,42.005055227637186,13.250840726712564,0
2020-03-19 18:00:00,ITA,13,Abruzzo,66,L'Aquila,AQ,66024,Carapelle Calvisio,42.316893197497762,13.687315507422293,0
2020-03-19 18:00:00,ITA,13,Abruzzo,66,L'Aquila,AQ,66025,Carsoli,42.116354689874917,13.114042476139270,0
2020-03-19 18:00:00,ITA,13,Abruzzo,66,L'Aquila,AQ,66026,Castel del Monte,42.392278927981934,13.731951814324894,0
2020-03-19 18:00:00,ITA,13,Abruzzo,66,L'Aquila,AQ,66027,Castel di Ieri,42.097626529664311,13.745075748801836,0
2020-03-19 18:00:00,ITA,13,Abruzzo,66,L'Aquila,AQ,66028,Castel di Sangro,41.781919635896330,14.120533682550523,1
2020-03-19 18:00:00,ITA,13,Abruzzo,66,L'Aquila,AQ,66029,Castellafiume,41.977747329109015,13.324226772409975,0
2020-03-19 18:00:00,ITA,13,Abruzzo,66,L'Aquila,AQ,66030,Castelvecchio Calvisio,42.327854945230897,13.679789497124760,0
2020-03-19 18:00:00,ITA,13,Abruzzo,66,L'Aquila,AQ,66031,Castelvecchio Subequo,42.109611862297285,13.721667955064291,0
2020-03-19 18:00:00,ITA,13,Abruzzo,66,L'Aquila,AQ,66032,Celano,42.077041707727567,13.566527581481052,0
2020-03-19 18:00:00,ITA,13,Abruzzo,66,L'Aquila,AQ,66033,Cerchio,42.042383093968645,13.596573754805592,0
2020-03-19 18:00:00,ITA,13,Abruzzo,66,L'Aquila,AQ,66034,Civita d'Antino,41.886475479377189,13.476701788218495,0
2020-03-19 18:00:00,ITA,13,Abruzzo,66,L'Aquila,AQ,66035,Civitella Alfedena,41.776554484901261,13.911953148156213,0
2020-03-19 18:00:00,ITA,13,Abruzzo,66,L'Aquila,AQ,66036,Civitella Roveto,41.896593791501353,13.410218486418216,0
2020-03-19 18:00:00,ITA,13,Abruzzo,66,L'Aquila,AQ,66037,Cocullo,42.033850448990378,13.770960882988497,0
2020-03-19 18:00:00,ITA,13,Abruzzo,66,L'Aquila,AQ,66038,Collarmele,42.061273994791073,13.643126503632315,2
2020-03-19 18:00:00,ITA,13,Abruzzo,66,L'Aquila,AQ,66039,Collelongo,41.890458594165963,13.572501172405605,0
2020-03-19 18:00:00,ITA,13,Abruzzo,66,L'Aquila,AQ,66040,Collepietro,42.217795984671838,13.786400210075648,0
2020-03-19 18:00:00,ITA,13,Abruzzo,66,L'Aquila,AQ,66041,Corfinio,42.135723554385272,13.858419590603710,0
2020-03-19 18:00:00,ITA,13,Abruzzo,66,L'Aquila,AQ,66042,Fagnano Alto,42.250090972873906,13.582435285604259,0
2020-03-19 18:00:00,ITA,13,Abruzzo,66,L'Aquila,AQ,66043,Fontecchio,42.224348362281688,13.606814689040663,0
2020-03-19 18:00:00,ITA,13,Abruzzo,66,L'Aquila,AQ,66044,Fossa,42.303245208408732,13.493523386382941,0
2020-03-19 18:00:00,ITA,13,Abruzzo,66,L'Aquila,AQ,66045,Gagliano Aterno,42.116886024626986,13.677156190220852,0
2020-03-19 18:00:00,ITA,13,Abruzzo,66,L'Aquila,AQ,66046,Gioia dei Marsi,41.915522043874752,13.730081958595040,0
2020-03-19 18:00:00,ITA,13,Abruzzo,66,L'Aquila,AQ,66047,Goriano Sicoli,42.072105383023334,13.771599281258530,0
2020-03-19 18:00:00,ITA,13,Abruzzo,66,L'Aquila,AQ,66048,Introdacqua,41.997880280119844,13.893260288097341,0
2020-03-19 18:00:00,ITA,13,Abruzzo,66,L'Aquila,AQ,66049,L'Aquila,42.393341382148087,13.424788697069678,5
2020-03-19 18:00:00,ITA,13,Abruzzo,66,L'Aquila,AQ,66050,Lecce nei Marsi,41.893943180776063,13.686312388230597,0
2020-03-19 18:00:00,ITA,13,Abruzzo,66,L'Aquila,AQ,66051,Luco dei Marsi,41.955029876219136,13.477286188957816,0
2020-03-19 18:00:00,ITA,13,Abruzzo,66,L'Aquila,AQ,66052,Lucoli,42.250895715959686,13.372381639029573,0
2020-03-19 18:00:00,ITA,13,Abruzzo,66,L'Aquila,AQ,66053,Magliano de' Marsi,42.126274387924163,13.337147896872558,0
2020-03-19 18:00:00,ITA,13,Abruzzo,66,L'Aquila,AQ,66054,Massa d'Albe,42.120862507078854,13.422271637961165,0
2020-03-19 18:00:00,ITA,13,Abruzzo,66,L'Aquila,AQ,66055,Molina Aterno,42.150176675051931,13.747987820336203,0
2020-03-19 18:00:00,ITA,13,Abruzzo,66,L'Aquila,AQ,66056,Montereale,42.530171437147530,13.227780138443535,0
2020-03-19 18:00:00,ITA,13,Abruzzo,66,L'Aquila,AQ,66057,Morino,41.842636747317322,13.442824684957802,0
2020-03-19 18:00:00,ITA,13,Abruzzo,66,L'Aquila,AQ,66058,Navelli,42.237418909335716,13.731991375865062,0
2020-03-19 18:00:00,ITA,13,Abruzzo,66,L'Aquila,AQ,66059,Ocre,42.278929492519460,13.466723745178822,0
2020-03-19 18:00:00,ITA,13,Abruzzo,66,L'Aquila,AQ,66060,Ofena,42.332603267461984,13.757182608075180,0
2020-03-19 18:00:00,ITA,13,Abruzzo,66,L'Aquila,AQ,66061,Opi,41.771427724853865,13.854713392939814,0
2020-03-19 18:00:00,ITA,13,Abruzzo,66,L'Aquila,AQ,66062,Oricola,42.066659662328320,13.043383979408638,0
2020-03-19 18:00:00,ITA,13,Abruzzo,66,L'Aquila,AQ,66063,Ortona dei Marsi,42.001489106879326,13.728790464551878,1
2020-03-19 18:00:00,ITA,13,Abruzzo,66,L'Aquila,AQ,66064,Ortucchio,41.948680874073496,13.620466396151517,0
2020-03-19 18:00:00,ITA,13,Abruzzo,66,L'Aquila,AQ,66065,Ovindoli,42.133399305062419,13.514147628716541,0
2020-03-19 18:00:00,ITA,13,Abruzzo,66,L'Aquila,AQ,66066,Pacentro,42.054780776378394,14.026962222883940,0
2020-03-19 18:00:00,ITA,13,Abruzzo,66,L'Aquila,AQ,66067,Pereto,42.052309049536646,13.128598234248367,0
2020-03-19 18:00:00,ITA,13,Abruzzo,66,L'Aquila,AQ,66068,Pescasseroli,41.809643105083886,13.791441229523368,0
2020-03-19 18:00:00,ITA,13,Abruzzo,66,L'Aquila,AQ,66069,Pescina,42.010180188208892,13.646157595136312,3
2020-03-19 18:00:00,ITA,13,Abruzzo,66,L'Aquila,AQ,66070,Pescocostanzo,41.918420416099629,14.056540124053990,0
2020-03-19 18:00:00,ITA,13,Abruzzo,66,L'Aquila,AQ,66071,Pettorano sul Gizio,41.967387235474071,13.946978506704790,0
2020-03-19 18:00:00,ITA,13,Abruzzo,66,L'Aquila,AQ,66072,Pizzoli,42.450317892110156,13.332629141878297,0
2020-03-19 18:00:00,ITA,13,Abruzzo,66,L'Aquila,AQ,66073,Poggio Picenze,42.317289139351487,13.540322825004550,0
2020-03-19 18:00:00,ITA,13,Abruzzo,66,L'Aquila,AQ,66074,Prata d'Ansidonia,42.273270468797271,13.619949555402185,0
2020-03-19 18:00:00,ITA,13,Abruzzo,66,L'Aquila,AQ,66075,Pratola Peligna,42.098872022970951,13.897029190574996,0
2020-03-19 18:00:00,ITA,13,Abruzzo,66,L'Aquila,AQ,66076,Prezza,42.057367963270309,13.835959329712416,0
2020-03-19 18:00:00,ITA,13,Abruzzo,66,L'Aquila,AQ,66077,Raiano,42.099995116431117,13.809756323881881,0
2020-03-19 18:00:00,ITA,13,Abruzzo,66,L'Aquila,AQ,66078,Rivisondoli,41.862692269152610,14.043606880469623,0
2020-03-19 18:00:00,ITA,13,Abruzzo,66,L'Aquila,AQ,66079,Roccacasale,42.129007519163423,13.890464033735194,0
2020-03-19 18:00:00,ITA,13,Abruzzo,66,L'Aquila,AQ,66080,Rocca di Botte,42.021951169148785,13.114494753617651,0
2020-03-19 18:00:00,ITA,13,Abruzzo,66,L'Aquila,AQ,66081,Rocca di Cambio,42.229250776575626,13.473888456139699,0
2020-03-19 18:00:00,ITA,13,Abruzzo,66,L'Aquila,AQ,66082,Rocca di Mezzo,42.196763702554009,13.508783290514996,0
2020-03-19 18:00:00,ITA,13,Abruzzo,66,L'Aquila,AQ,66083,Rocca Pia,41.905301605393092,13.986950049088108,0
2020-03-19 18:00:00,ITA,13,Abruzzo,66,L'Aquila,AQ,66084,Roccaraso,41.837481849387679,14.078161056142388,0
2020-03-19 18:00:00,ITA,13,Abruzzo,66,L'Aquila,AQ,66085,San Benedetto dei Marsi,42.006678251049848,13.603000375513664,1
2020-03-19 18:00:00,ITA,13,Abruzzo,66,L'Aquila,AQ,66086,San Benedetto in Perillis,42.179665279892092,13.775057041707818,0
2020-03-19 18:00:00,ITA,13,Abruzzo,66,L'Aquila,AQ,66087,San Demetrio ne' Vestini,42.284100886370354,13.555415940464799,0
2020-03-19 18:00:00,ITA,13,Abruzzo,66,L'Aquila,AQ,66088,San Pio delle Camere,42.290337603843874,13.649248428211491,0
2020-03-19 18:00:00,ITA,13,Abruzzo,66,L'Aquila,AQ,66089,Sante Marie,42.118541219684374,13.210681308426947,0
2020-03-19 18:00:00,ITA,13,Abruzzo,66,L'Aquila,AQ,66090,Sant'Eusanio Forconese,42.283493163998067,13.514908705910933,0
2020-03-19 18:00:00,ITA,13,Abruzzo,66,L'Aquila,AQ,66091,Santo Stefano di Sessanio,42.375420365925166,13.647434740095820,0
2020-03-19 18:00:00,ITA,13,Abruzzo,66,L'Aquila,AQ,66092,San Vincenzo Valle Roveto,41.833283563324635,13.528640859360396,0
2020-03-19 18:00:00,ITA,13,Abruzzo,66,L'Aquila,AQ,66093,Scanno,41.876683549124074,13.901192591579463,0
2020-03-19 18:00:00,ITA,13,Abruzzo,66,L'Aquila,AQ,66094,Scontrone,41.763478177268162,14.054756428127387,0
2020-03-19 18:00:00,ITA,13,Abruzzo,66,L'Aquila,AQ,66095,Scoppito,42.360537894068088,13.221342411341903,0
2020-03-19 18:00:00,ITA,13,Abruzzo,66,L'Aquila,AQ,66096,Scurcola Marsicana,42.057201277558079,13.352657659820316,1
2020-03-19 18:00:00,ITA,13,Abruzzo,66,L'Aquila,AQ,66097,Secinaro,42.156602087177696,13.644457335740492,0
2020-03-19 18:00:00,ITA,13,Abruzzo,66,L'Aquila,AQ,66098,Sulmona,42.065847002747397,13.934359781218687,1
2020-03-19 18:00:00,ITA,13,Abruzzo,66,L'Aquila,AQ,66099,Tagliacozzo,42.065669360158765,13.254909715266159,1
2020-03-19 18:00:00,ITA,13,Abruzzo,66,L'Aquila,AQ,66100,Tione degli Abruzzi,42.191744054922353,13.642001167413694,0
2020-03-19 18:00:00,ITA,13,Abruzzo,66,L'Aquila,AQ,66101,Tornimparte,42.285485331404416,13.277312348637244,0
2020-03-19 18:00:00,ITA,13,Abruzzo,66,L'Aquila,AQ,66102,Trasacco,41.950595616978049,13.538969234986119,1
2020-03-19 18:00:00,ITA,13,Abruzzo,66,L'Aquila,AQ,66103,Villalago,41.934888946856553,13.821468588561142,0
2020-03-19 18:00:00,ITA,13,Abruzzo,66,L'Aquila,AQ,66104,Villa Santa Lucia degli Abruzzi,42.335903926266759,13.786293442706130,0
2020-03-19 18:00:00,ITA,13,Abruzzo,66,L'Aquila,AQ,66105,Villa Sant'Angelo,42.265357838774911,13.535526277899578,0
2020-03-19 18:00:00,ITA,13,Abruzzo,66,L'Aquila,AQ,66106,Villavallelonga,41.839148115568072,13.664468103792112,0
2020-03-19 18:00:00,ITA,13,Abruzzo,66,L'Aquila,AQ,66107,Villetta Barrea,41.798993842503499,13.934346872518761,0
2020-03-19 18:00:00,ITA,13,Abruzzo,66,L'Aquila,AQ,66108,Vittorito,42.135014996471227,13.807289797834651,0
2020-03-19 18:00:00,ITA,13,Abruzzo,67,Teramo,TE,67001,Alba Adriatica,42.822344003961874,13.906834362477245,1
2020-03-19 18:00:00,ITA,13,Abruzzo,67,Teramo,TE,67002,Ancarano,42.840398981629654,13.747532072370582,0
2020-03-19 18:00:00,ITA,13,Abruzzo,67,Teramo,TE,67003,Arsita,42.472719806534279,13.775977189119178,0
2020-03-19 18:00:00,ITA,13,Abruzzo,67,Teramo,TE,67004,Atri,42.584280620662582,13.980141976805005,0
2020-03-19 18:00:00,ITA,13,Abruzzo,67,Teramo,TE,67005,Basciano,42.588293865168929,13.735149839919940,0
2020-03-19 18:00:00,ITA,13,Abruzzo,67,Teramo,TE,67006,Bellante,42.741089324024813,13.810018167166540,1
2020-03-19 18:00:00,ITA,13,Abruzzo,67,Teramo,TE,67007,Bisenti,42.528233366019407,13.804874168442156,0
2020-03-19 18:00:00,ITA,13,Abruzzo,67,Teramo,TE,67008,Campli,42.734637194942756,13.697443921833607,0
2020-03-19 18:00:00,ITA,13,Abruzzo,67,Teramo,TE,67009,Canzano,42.649556018382285,13.803908419880218,0
2020-03-19 18:00:00,ITA,13,Abruzzo,67,Teramo,TE,67010,Castel Castagna,42.541396091802994,13.731567877672324,0
2020-03-19 18:00:00,ITA,13,Abruzzo,67,Teramo,TE,67011,Castellalto,42.666184726616663,13.836646701647139,0
2020-03-19 18:00:00,ITA,13,Abruzzo,67,Teramo,TE,67012,Castelli,42.485121779072699,13.725350153712437,0
2020-03-19 18:00:00,ITA,13,Abruzzo,67,Teramo,TE,67013,Castiglione Messer Raimondo,42.520181707263511,13.868741881322610,12
2020-03-19 18:00:00,ITA,13,Abruzzo,67,Teramo,TE,67014,Castilenti,42.535931467188547,13.941086244909402,3
2020-03-19 18:00:00,ITA,13,Abruzzo,67,Teramo,TE,67015,Cellino Attanasio,42.586901420306681,13.856277958652342,1
2020-03-19 18:00:00,ITA,13,Abruzzo,67,Teramo,TE,67016,Cermignano,42.589207628369337,13.800314177007754,1
2020-03-19 18:00:00,ITA,13,Abruzzo,67,Teramo,TE,67017,Civitella del Tronto,42.779295891793467,13.659802446631756,0
2020-03-19 18:00:00,ITA,13,Abruzzo,67,Teramo,TE,67018,Colledara,42.552228910934268,13.687199503293296,0
2020-03-19 18:00:00,ITA,13,Abruzzo,67,Teramo,TE,67019,Colonnella,42.864185067660195,13.875570304867921,0
2020-03-19 18:00:00,ITA,13,Abruzzo,67,Teramo,TE,67020,Controguerra,42.854897731789542,13.813201924236733,0
2020-03-19 18:00:00,ITA,13,Abruzzo,67,Teramo,TE,67021,Corropoli,42.827298309009301,13.853391791013342,0
2020-03-19 18:00:00,ITA,13,Abruzzo,67,Teramo,TE,67022,Cortino,42.629069590804050,13.497647031994546,0
2020-03-19 18:00:00,ITA,13,Abruzzo,67,Teramo,TE,67023,Crognaleto,42.566858446944430,13.472712681745522,0
2020-03-19 18:00:00,ITA,13,Abruzzo,67,Teramo,TE,67024,Fano Adriano,42.525080384293503,13.532534838743537,0
2020-03-19 18:00:00,ITA,13,Abruzzo,67,Teramo,TE,67025,Giulianova,42.741036138891246,13.941193360148660,0
2020-03-19 18:00:00,ITA,13,Abruzzo,67,Teramo,TE,67026,Isola del Gran Sasso d'Italia,42.486187659785308,13.638062191599163,0
2020-03-19 18:00:00,ITA,13,Abruzzo,67,Teramo,TE,67027,Montefino,42.556977076171307,13.892090437819444,3
2020-03-19 18:00:00,ITA,13,Abruzzo,67,Teramo,TE,67028,Montorio al Vomano,42.585408172146757,13.628361668637172,0
2020-03-19 18:00:00,ITA,13,Abruzzo,67,Teramo,TE,67029,Morro d'Oro,42.656299698393113,13.934128817706474,0
2020-03-19 18:00:00,ITA,13,Abruzzo,67,Teramo,TE,67030,Mosciano Sant'Angelo,42.741941610776941,13.887740669655649,0
2020-03-19 18:00:00,ITA,13,Abruzzo,67,Teramo,TE,67031,Nereto,42.818077943838588,13.812393825887765,0
2020-03-19 18:00:00,ITA,13,Abruzzo,67,Teramo,TE,67032,Notaresco,42.660663037308083,13.886066943979953,1
2020-03-19 18:00:00,ITA,13,Abruzzo,67,Teramo,TE,67033,Penna Sant'Andrea,42.585321201474024,13.765960076860134,0
2020-03-19 18:00:00,ITA,13,Abruzzo,67,Teramo,TE,67034,Pietracamela,42.497724472809608,13.542828316800247,0
2020-03-19 18:00:00,ITA,13,Abruzzo,67,Teramo,TE,67035,Pineto,42.607996915221719,14.040642043060348,9
2020-03-19 18:00:00,ITA,13,Abruzzo,67,Teramo,TE,67036,Rocca Santa Maria,42.673740905705543,13.492120727454761,0
2020-03-19 18:00:00,ITA,13,Abruzzo,67,Teramo,TE,67037,Roseto degli Abruzzi,42.680849994267824,13.979349692531905,1
2020-03-19 18:00:00,ITA,13,Abruzzo,67,Teramo,TE,67038,Sant'Egidio alla Vibrata,42.817656330278304,13.710206798584847,0
2020-03-19 18:00:00,ITA,13,Abruzzo,67,Teramo,TE,67039,Sant'Omero,42.788757774309758,13.821761333018072,0
2020-03-19 18:00:00,ITA,13,Abruzzo,67,Teramo,TE,67040,Silvi,42.552616811154870,14.096779776275593,3
2020-03-19 18:00:00,ITA,13,Abruzzo,67,Teramo,TE,67041,Teramo,42.658399631570269,13.710551726244097,5
2020-03-19 18:00:00,ITA,13,Abruzzo,67,Teramo,TE,67042,Torano Nuovo,42.821815677384762,13.776990381237207,0
2020-03-19 18:00:00,ITA,13,Abruzzo,67,Teramo,TE,67043,Torricella Sicura,42.666524472962777,13.602417711772180,1
2020-03-19 18:00:00,ITA,13,Abruzzo,67,Teramo,TE,67044,Tortoreto,42.798984728278278,13.910080899264278,0
2020-03-19 18:00:00,ITA,13,Abruzzo,67,Teramo,TE,67045,Tossicia,42.549139115788080,13.635772174711303,0
2020-03-19 18:00:00,ITA,13,Abruzzo,67,Teramo,TE,67046,Valle Castellana,42.729043093063488,13.502307603925656,0
2020-03-19 18:00:00,ITA,13,Abruzzo,67,Teramo,TE,67047,Martinsicuro,42.866112214085774,13.911277785166508,0
2020-03-19 18:00:00,ITA,13,Abruzzo,68,Pescara,PE,68001,Abbateggio,42.204032636802161,14.022259839644574,0
2020-03-19 18:00:00,ITA,13,Abruzzo,68,Pescara,PE,68002,Alanno,42.291094125709641,13.985385197499140,1
2020-03-19 18:00:00,ITA,13,Abruzzo,68,Pescara,PE,68003,Bolognano,42.214235309983621,13.950061141389545,0
2020-03-19 18:00:00,ITA,13,Abruzzo,68,Pescara,PE,68004,Brittoli,42.304891892049405,13.854217414796720,0
2020-03-19 18:00:00,ITA,13,Abruzzo,68,Pescara,PE,68005,Bussi sul Tirino,42.218491039418524,13.832944117301606,0
2020-03-19 18:00:00,ITA,13,Abruzzo,68,Pescara,PE,68006,Cappelle sul Tavo,42.468963951772025,14.104002164800230,2
2020-03-19 18:00:00,ITA,13,Abruzzo,68,Pescara,PE,68007,Caramanico Terme,42.150576349181222,14.029771758260679,1
2020-03-19 18:00:00,ITA,13,Abruzzo,68,Pescara,PE,68008,Carpineto della Nora,42.341394112842124,13.837013886231768,0
2020-03-19 18:00:00,ITA,13,Abruzzo,68,Pescara,PE,68009,Castiglione a Casauria,42.230449510448487,13.896871698445091,0
2020-03-19 18:00:00,ITA,13,Abruzzo,68,Pescara,PE,68010,Catignano,42.350910971961483,13.966348201920090,0
2020-03-19 18:00:00,ITA,13,Abruzzo,68,Pescara,PE,68011,Cepagatti,42.369130875958334,14.105452789071164,4
2020-03-19 18:00:00,ITA,13,Abruzzo,68,Pescara,PE,68012,Citta Sant'Angelo,42.512139699245473,14.061358323467505,15
2020-03-19 18:00:00,ITA,13,Abruzzo,68,Pescara,PE,68013,Civitaquana,42.339662417381248,13.920431781785858,0
2020-03-19 18:00:00,ITA,13,Abruzzo,68,Pescara,PE,68014,Civitella Casanova,42.378706434583165,13.882246375705153,7
2020-03-19 18:00:00,ITA,13,Abruzzo,68,Pescara,PE,68015,Collecorvino,42.464185606981317,14.039807267094504,2
2020-03-19 18:00:00,ITA,13,Abruzzo,68,Pescara,PE,68016,Corvara,42.276480963095516,13.870002603417165,0
2020-03-19 18:00:00,ITA,13,Abruzzo,68,Pescara,PE,68017,Cugnoli,42.309320793882677,13.938931600190978,0
2020-03-19 18:00:00,ITA,13,Abruzzo,68,Pescara,PE,68018,Elice,42.514810958776401,13.979134101569002,5
2020-03-19 18:00:00,ITA,13,Abruzzo,68,Pescara,PE,68019,Farindola,42.431748649789341,13.814105269782473,1
2020-03-19 18:00:00,ITA,13,Abruzzo,68,Pescara,PE,68020,Lettomanoppello,42.227515443772425,14.051417546647924,0
2020-03-19 18:00:00,ITA,13,Abruzzo,68,Pescara,PE,68021,Loreto Aprutino,42.411673265711649,13.974260692339879,3
2020-03-19 18:00:00,ITA,13,Abruzzo,68,Pescara,PE,68022,Manoppello,42.279984010241236,14.065226220327931,2
2020-03-19 18:00:00,ITA,13,Abruzzo,68,Pescara,PE,68023,Montebello di Bertona,42.417717319374503,13.861481416744082,1
2020-03-19 18:00:00,ITA,13,Abruzzo,68,Pescara,PE,68024,Montesilvano,42.493320145645825,14.141600271510034,19
2020-03-19 18:00:00,ITA,13,Abruzzo,68,Pescara,PE,68025,Moscufo,42.431526757146578,14.066134613886492,1
2020-03-19 18:00:00,ITA,13,Abruzzo,68,Pescara,PE,68026,Nocciano,42.339038158230160,13.997890748185402,1
2020-03-19 18:00:00,ITA,13,Abruzzo,68,Pescara,PE,68027,Penne,42.467565532264601,13.906295631337303,5
2020-03-19 18:00:00,ITA,13,Abruzzo,68,Pescara,PE,68028,Pescara,42.456074555984877,14.202822401582965,65
2020-03-19 18:00:00,ITA,13,Abruzzo,68,Pescara,PE,68029,Pescosansonesco,42.246299878450870,13.871455939577073,0
2020-03-19 18:00:00,ITA,13,Abruzzo,68,Pescara,PE,68030,Pianella,42.392368281441094,14.057168679280108,3
2020-03-19 18:00:00,ITA,13,Abruzzo,68,Pescara,PE,68031,Picciano,42.477763943024968,13.984568417872801,1
2020-03-19 18:00:00,ITA,13,Abruzzo,68,Pescara,PE,68032,Pietranico,42.283469226782344,13.913933499289652,0
2020-03-19 18:00:00,ITA,13,Abruzzo,68,Pescara,PE,68033,Popoli,42.170890013709688,13.838751786179737,0
2020-03-19 18:00:00,ITA,13,Abruzzo,68,Pescara,PE,68034,Roccamorice,42.189825275114096,14.065117203796296,0
2020-03-19 18:00:00,ITA,13,Abruzzo,68,Pescara,PE,68035,Rosciano,42.333855388601968,14.044798991391827,1
2020-03-19 18:00:00,ITA,13,Abruzzo,68,Pescara,PE,68036,Salle,42.153056976003093,13.943459738482193,0
2020-03-19 18:00:00,ITA,13,Abruzzo,68,Pescara,PE,68037,Sant'Eufemia a Maiella,42.104965732675005,14.035539289117279,0
2020-03-19 18:00:00,ITA,13,Abruzzo,68,Pescara,PE,68038,San Valentino in Abruzzo Citeriore,42.231503562195286,13.981800485374814,0
2020-03-19 18:00:00,ITA,13,Abruzzo,68,Pescara,PE,68039,Scafa,42.254801487241835,13.990741621357575,0
2020-03-19 18:00:00,ITA,13,Abruzzo,68,Pescara,PE,68040,Serramonacesca,42.237916815282468,14.096406068669795,0
2020-03-19 18:00:00,ITA,13,Abruzzo,68,Pescara,PE,68041,Spoltore,42.440590457405094,14.137538201291296,1
2020-03-19 18:00:00,ITA,13,Abruzzo,68,Pescara,PE,68042,Tocco da Casauria,42.195652445598967,13.912105187661377,0
2020-03-19 18:00:00,ITA,13,Abruzzo,68,Pescara,PE,68043,Torre de' Passeri,42.252560230007582,13.933457808639581,0
2020-03-19 18:00:00,ITA,13,Abruzzo,68,Pescara,PE,68044,Turrivalignani,42.265392003714481,14.025174438916316,0
2020-03-19 18:00:00,ITA,13,Abruzzo,68,Pescara,PE,68045,Vicoli,42.343563229309829,13.892471133233181,0
2020-03-19 18:00:00,ITA,13,Abruzzo,68,Pescara,PE,68046,Villa Celiera,42.383803611803295,13.845989954168914,0
2020-03-19 18:00:00,ITA,13,Abruzzo,69,Chieti,CH,69001,Altino,42.106095315246264,14.348976100829809,0
2020-03-19 18:00:00,ITA,13,Abruzzo,69,Chieti,CH,69002,Archi,42.080891667107316,14.384615086094232,0
2020-03-19 18:00:00,ITA,13,Abruzzo,69,Chieti,CH,69003,Ari,42.286455147520684,14.256174131710472,0
2020-03-19 18:00:00,ITA,13,Abruzzo,69,Chieti,CH,69004,Arielli,42.256803328154071,14.300861329787475,1
2020-03-19 18:00:00,ITA,13,Abruzzo,69,Chieti,CH,69005,Atessa,42.087701438167677,14.461042760463199,2
2020-03-19 18:00:00,ITA,13,Abruzzo,69,Chieti,CH,69006,Bomba,42.037730977793800,14.369530051554749,0
2020-03-19 18:00:00,ITA,13,Abruzzo,69,Chieti,CH,69007,Borrello,41.914016064782885,14.314369218988050,0
2020-03-19 18:00:00,ITA,13,Abruzzo,69,Chieti,CH,69008,Bucchianico,42.304608937712644,14.176273313936962,0
2020-03-19 18:00:00,ITA,13,Abruzzo,69,Chieti,CH,69009,Montebello sul Sangro,41.986532885229330,14.322448174415017,0
2020-03-19 18:00:00,ITA,13,Abruzzo,69,Chieti,CH,69010,Canosa Sannita,42.289383056558243,14.294856167500548,0
2020-03-19 18:00:00,ITA,13,Abruzzo,69,Chieti,CH,69011,Carpineto Sinello,41.999187955040398,14.504630615428820,0
2020-03-19 18:00:00,ITA,13,Abruzzo,69,Chieti,CH,69012,Carunchio,41.920229223085435,14.532385751805350,0
2020-03-19 18:00:00,ITA,13,Abruzzo,69,Chieti,CH,69013,Casacanditella,42.262445538268722,14.211074797126471,0
2020-03-19 18:00:00,ITA,13,Abruzzo,69,Chieti,CH,69014,Casalanguida,42.046681889999654,14.515398346397552,0
2020-03-19 18:00:00,ITA,13,Abruzzo,69,Chieti,CH,69015,Casalbordino,42.163628414145911,14.581177910714862,1
2020-03-19 18:00:00,ITA,13,Abruzzo,69,Chieti,CH,69016,Casalincontrada,42.295725142978213,14.118139595985234,0
2020-03-19 18:00:00,ITA,13,Abruzzo,69,Chieti,CH,69017,Casoli,42.127884001540075,14.291992365658826,1
2020-03-19 18:00:00,ITA,13,Abruzzo,69,Chieti,CH,69018,Castel Frentano,42.193734991793896,14.350978347408388,1
2020-03-19 18:00:00,ITA,13,Abruzzo,69,Chieti,CH,69019,Castelguidone,41.825597571739912,14.532315553631511,0
2020-03-19 18:00:00,ITA,13,Abruzzo,69,Chieti,CH,69020,Castiglione Messer Marino,41.871419908782833,14.443598862168216,0
2020-03-19 18:00:00,ITA,13,Abruzzo,69,Chieti,CH,69021,Celenza sul Trigno,41.883182553631812,14.584203951445444,0
2020-03-19 18:00:00,ITA,13,Abruzzo,69,Chieti,CH,69022,Chieti,42.358447731485839,14.162360748808361,2
2020-03-19 18:00:00,ITA,13,Abruzzo,69,Chieti,CH,69023,Civitaluparella,41.953303648724713,14.285658863582192,0
2020-03-19 18:00:00,ITA,13,Abruzzo,69,Chieti,CH,69024,Civitella Messer Raimondo,42.080832388807110,14.221041340650554,0
2020-03-19 18:00:00,ITA,13,Abruzzo,69,Chieti,CH,69025,Colledimacine,41.999307892086989,14.206591275175992,0
2020-03-19 18:00:00,ITA,13,Abruzzo,69,Chieti,CH,69026,Colledimezzo,41.989532041633275,14.388865243296943,0
2020-03-19 18:00:00,ITA,13,Abruzzo,69,Chieti,CH,69027,Crecchio,42.292659331001651,14.333990855190395,3
2020-03-19 18:00:00,ITA,13,Abruzzo,69,Chieti,CH,69028,Cupello,42.038764382139334,14.684612272485307,0
2020-03-19 18:00:00,ITA,13,Abruzzo,69,Chieti,CH,69029,Dogliola,41.948874841668761,14.644223816880695,0
2020-03-19 18:00:00,ITA,13,Abruzzo,69,Chieti,CH,69030,Fara Filiorum Petri,42.249954220052153,14.173983471298961,0
2020-03-19 18:00:00,ITA,13,Abruzzo,69,Chieti,CH,69031,Fara San Martino,42.092493323882692,14.160213544702261,0
2020-03-19 18:00:00,ITA,13,Abruzzo,69,Chieti,CH,69032,Filetto,42.235205603743729,14.245153073593524,0
2020-03-19 18:00:00,ITA,13,Abruzzo,69,Chieti,CH,69033,Fossacesia,42.233079200211080,14.488311927247505,1
2020-03-19 18:00:00,ITA,13,Abruzzo,69,Chieti,CH,69034,Fraine,41.902054532481223,14.491258004649239,0
2020-03-19 18:00:00,ITA,13,Abruzzo,69,Chieti,CH,69035,Francavilla al Mare,42.411935092144041,14.275849806837936,4
2020-03-19 18:00:00,ITA,13,Abruzzo,69,Chieti,CH,69036,Fresagrandinaria,41.984710633897272,14.657254447136619,0
2020-03-19 18:00:00,ITA,13,Abruzzo,69,Chieti,CH,69037,Frisa,42.266394233769304,14.376690752813142,1
2020-03-19 18:00:00,ITA,13,Abruzzo,69,Chieti,CH,69038,Furci,42.029413725427709,14.605919518048786,0
2020-03-19 18:00:00,ITA,13,Abruzzo,69,Chieti,CH,69039,Gamberale,41.902448839305706,14.206899270070380,0
2020-03-19 18:00:00,ITA,13,Abruzzo,69,Chieti,CH,69040,Gessopalena,42.053969204531469,14.273329731164511,0
2020-03-19 18:00:00,ITA,13,Abruzzo,69,Chieti,CH,69041,Gissi,42.040782247631881,14.558917320269749,0
2020-03-19 18:00:00,ITA,13,Abruzzo,69,Chieti,CH,69042,Giuliano Teatino,42.311521624371750,14.283359866280753,0
2020-03-19 18:00:00,ITA,13,Abruzzo,69,Chieti,CH,69043,Guardiagrele,42.185873866641529,14.242749336985819,1
2020-03-19 18:00:00,ITA,13,Abruzzo,69,Chieti,CH,69044,Guilmi,41.991450263790455,14.482419277629809,1
2020-03-19 18:00:00,ITA,13,Abruzzo,69,Chieti,CH,69045,Lama dei Peligni,42.051417268045611,14.180946344963836,0
2020-03-19 18:00:00,ITA,13,Abruzzo,69,Chieti,CH,69046,Lanciano,42.207655355357552,14.400222167073476,3
2020-03-19 18:00:00,ITA,13,Abruzzo,69,Chieti,CH,69047,Lentella,41.997684140353478,14.688861662655063,0
2020-03-19 18:00:00,ITA,13,Abruzzo,69,Chieti,CH,69048,Lettopalena,41.998767212845173,14.162393843090202,0
2020-03-19 18:00:00,ITA,13,Abruzzo,69,Chieti,CH,69049,Liscia,41.953244312874894,14.552467149498883,0
2020-03-19 18:00:00,ITA,13,Abruzzo,69,Chieti,CH,69050,Miglianico,42.357478123824997,14.285863755891842,1
2020-03-19 18:00:00,ITA,13,Abruzzo,69,Chieti,CH,69051,Montazzoli,41.958759075790439,14.431775378019164,1
2020-03-19 18:00:00,ITA,13,Abruzzo,69,Chieti,CH,69052,Monteferrante,41.938266449465850,14.387694707155781,0
2020-03-19 18:00:00,ITA,13,Abruzzo,69,Chieti,CH,69053,Montelapiano,41.968229919917498,14.330856817387042,0
2020-03-19 18:00:00,ITA,13,Abruzzo,69,Chieti,CH,69054,Montenerodomo,41.971733401371360,14.235265802804500,0
2020-03-19 18:00:00,ITA,13,Abruzzo,69,Chieti,CH,69055,Monteodorisio,42.094295904159374,14.650317986524692,0
2020-03-19 18:00:00,ITA,13,Abruzzo,69,Chieti,CH,69056,Mozzagrogna,42.197595150989301,14.449791230314281,2
2020-03-19 18:00:00,ITA,13,Abruzzo,69,Chieti,CH,69057,Orsogna,42.227722737591868,14.290992961349023,0
2020-03-19 18:00:00,ITA,13,Abruzzo,69,Chieti,CH,69058,Ortona,42.336844593534586,14.372054582511613,3
2020-03-19 18:00:00,ITA,13,Abruzzo,69,Chieti,CH,69059,Paglieta,42.169454481478425,14.490316137940841,0
2020-03-19 18:00:00,ITA,13,Abruzzo,69,Chieti,CH,69060,Palena,41.958078583474254,14.129201600571591,0
2020-03-19 18:00:00,ITA,13,Abruzzo,69,Chieti,CH,69061,Palmoli,41.955377725041274,14.599481857502962,0
2020-03-19 18:00:00,ITA,13,Abruzzo,69,Chieti,CH,69062,Palombaro,42.125569803772954,14.219645438924351,0
2020-03-19 18:00:00,ITA,13,Abruzzo,69,Chieti,CH,69063,Pennadomo,42.004938294992066,14.321480045577006,0
2020-03-19 18:00:00,ITA,13,Abruzzo,69,Chieti,CH,69064,Pennapiedimonte,42.143479408842403,14.166798363664075,0
2020-03-19 18:00:00,ITA,13,Abruzzo,69,Chieti,CH,69065,Perano,42.107581075632169,14.394961684914884,0
2020-03-19 18:00:00,ITA,13,Abruzzo,69,Chieti,CH,69066,Pizzoferrato,41.925140830068138,14.233802414227807,0
2020-03-19 18:00:00,ITA,13,Abruzzo,69,Chieti,CH,69067,Poggiofiorito,42.248763106136991,14.328103651299701,0
2020-03-19 18:00:00,ITA,13,Abruzzo,69,Chieti,CH,69068,Pollutri,42.134090090627275,14.596194282515324,0
2020-03-19 18:00:00,ITA,13,Abruzzo,69,Chieti,CH,69069,Pretoro,42.204155702963035,14.132090141893068,0
2020-03-19 18:00:00,ITA,13,Abruzzo,69,Chieti,CH,69070,Quadri,41.926913312279986,14.271821306501840,0
2020-03-19 18:00:00,ITA,13,Abruzzo,69,Chieti,CH,69071,Rapino,42.199863724609088,14.169399495012502,0
2020-03-19 18:00:00,ITA,13,Abruzzo,69,Chieti,CH,69072,Ripa Teatina,42.364273250264475,14.247707117733725,2
2020-03-19 18:00:00,ITA,13,Abruzzo,69,Chieti,CH,69073,Roccamontepiano,42.255037177007068,14.134055866181670,2
2020-03-19 18:00:00,ITA,13,Abruzzo,69,Chieti,CH,69074,Rocca San Giovanni,42.262526739343059,14.461496265622129,0
2020-03-19 18:00:00,ITA,13,Abruzzo,69,Chieti,CH,69075,Roccascalegna,42.067410591965086,14.321976040958017,0
2020-03-19 18:00:00,ITA,13,Abruzzo,69,Chieti,CH,69076,Roccaspinalveti,41.930051272064198,14.465117233450385,0
2020-03-19 18:00:00,ITA,13,Abruzzo,69,Chieti,CH,69077,Roio del Sangro,41.911454893782050,14.374082397373916,0
2020-03-19 18:00:00,ITA,13,Abruzzo,69,Chieti,CH,69078,Rosello,41.893815246441363,14.351222785630581,0
2020-03-19 18:00:00,ITA,13,Abruzzo,69,Chieti,CH,69079,San Buono,41.992799034884278,14.579269469104556,0
2020-03-19 18:00:00,ITA,13,Abruzzo,69,Chieti,CH,69080,San Giovanni Lipioni,41.843998742828298,14.568538741751548,0
2020-03-19 18:00:00,ITA,13,Abruzzo,69,Chieti,CH,69081,San Giovanni Teatino,42.412861511024296,14.185523105776211,2
2020-03-19 18:00:00,ITA,13,Abruzzo,69,Chieti,CH,69082,San Martino sulla Marrucina,42.228368525851756,14.219149573202044,0
2020-03-19 18:00:00,ITA,13,Abruzzo,69,Chieti,CH,69083,San Salvo,42.046384306519926,14.752454417257487,0
2020-03-19 18:00:00,ITA,13,Abruzzo,69,Chieti,CH,69084,Santa Maria Imbaro,42.216035785715270,14.457309802414931,1
2020-03-19 18:00:00,ITA,13,Abruzzo,69,Chieti,CH,69085,Sant'Eusanio del Sangro,42.157568895373835,14.355941732407050,0
2020-03-19 18:00:00,ITA,13,Abruzzo,69,Chieti,CH,69086,San Vito Chietino,42.292921244528138,14.432581883198369,0
2020-03-19 18:00:00,ITA,13,Abruzzo,69,Chieti,CH,69087,Scerni,42.097930029391485,14.585618493527942,0
2020-03-19 18:00:00,ITA,13,Abruzzo,69,Chieti,CH,69088,Schiavi di Abruzzo,41.804753780518787,14.485521485173910,0
2020-03-19 18:00:00,ITA,13,Abruzzo,69,Chieti,CH,69089,Taranta Peligna,42.035679894195248,14.146286143268062,0
2020-03-19 18:00:00,ITA,13,Abruzzo,69,Chieti,CH,69090,Tollo,42.344242041373867,14.318367439792993,2
2020-03-19 18:00:00,ITA,13,Abruzzo,69,Chieti,CH,69091,Torino di Sangro,42.197058316595019,14.546520747660351,0
2020-03-19 18:00:00,ITA,13,Abruzzo,69,Chieti,CH,69092,Tornareccio,42.029315638882721,14.423448842454883,0
2020-03-19 18:00:00,ITA,13,Abruzzo,69,Chieti,CH,69093,Torrebruna,41.866099589187201,14.536374676970969,0
2020-03-19 18:00:00,ITA,13,Abruzzo,69,Chieti,CH,69094,Torrevecchia Teatina,42.394199815786507,14.234499037248566,0
2020-03-19 18:00:00,ITA,13,Abruzzo,69,Chieti,CH,69095,Torricella Peligna,42.020021754270836,14.267278999592369,0
2020-03-19 18:00:00,ITA,13,Abruzzo,69,Chieti,CH,69096,Treglio,42.264709021098518,14.422580381269022,1
2020-03-19 18:00:00,ITA,13,Abruzzo,69,Chieti,CH,69097,Tufillo,41.919171700484114,14.628406508704462,0
2020-03-19 18:00:00,ITA,13,Abruzzo,69,Chieti,CH,69098,Vacri,42.291924631495220,14.232015822155301,0
2020-03-19 18:00:00,ITA,13,Abruzzo,69,Chieti,CH,69099,Vasto,42.120548106967838,14.694637710712625,2
2020-03-19 18:00:00,ITA,13,Abruzzo,69,Chieti,CH,69100,Villalfonsina,42.176378202324315,14.569111247333682,0
2020-03-19 18:00:00,ITA,13,Abruzzo,69,Chieti,CH,69101,Villamagna,42.329534002412174,14.234511811639679,0
2020-03-19 18:00:00,ITA,13,Abruzzo,69,Chieti,CH,69102,Villa Santa Maria,41.970017717585399,14.352752279283461,0
2020-03-19 18:00:00,ITA,13,Abruzzo,69,Chieti,CH,69103,Pietraferrazzana,41.972578332938909,14.379278663622042,0
2020-03-19 18:00:00,ITA,13,Abruzzo,69,Chieti,CH,69104,Fallo,41.948059369423916,14.323823168350033,0
